name,address,rating,reviews_count,price_range,lat,lon,district,village,regency,type,phone,website,opening_hours,search_query,scraped_at,coordinate_source,precision_score
Sellie Coffee Malioboro,,0.0,0,Rp 25–50 rb,-7.7939257,110.3654873,Yogyakarta,,Yogyakarta,Coffee Shop,,,Buka ⋅ Tutup pukul 23.30,cafe  malioboro,2025-08-28T11:23:19.665301,extract_from_url,0.9
Loko Cafe - Malioboro,"Kafe · Komp. Ps. Kembang, Jl. Ps. Kembang",0.0,0,Rp 25–50 rb,-7.7897901,110.3657681,Yogyakarta,,Yogyakarta,Modern,,,Buka ⋅ Tutup pukul 23.00,cafe  malioboro,2025-08-28T11:23:19.669111,extract_from_url,0.9
Karta Coffee & Eatery,"Kafe · Karta Coffee & Eatery, Jl. Malioboro. 52-58, Suryatmajan, Danurejan Plaza Malioboro, Lt. 1 Unit 13-16",0.0,0,Rp 25–50 rb,-7.7936271,110.3658864,Yogyakarta,,Yogyakarta,Coffee Shop,,,Buka ⋅ Tutup pukul 22.00,cafe  malioboro,2025-08-28T11:23:19.669281,extract_from_url,0.9
Azen Coffee Malioboro,Kedai Kopi · Jl. Suryatmajan No.39,0.0,0,Rp 25–50 rb,-7.7964764,110.3678926,Yogyakarta,,Yogyakarta,Coffee Shop,,,Buka ⋅ Tutup pukul 00.00,cafe  malioboro,2025-08-28T11:23:19.823495,extract_from_url,0.9
Kala Jumpa Bar & Dine,Kafe ·  · Jl. Malioboro No.42,0.0,0,Rp 50–75 rb,-7.793899,110.3658441,Yogyakarta,,Yogyakarta,Modern,,,Buka ⋅ Tutup pukul 23.30,cafe  malioboro,2025-08-28T11:23:19.896943,extract_from_url,0.9
LAJU MALIOBORO,Kedai Kopi · Jl. Ps. Kembang No.95,0.0,0,Rp 1–25.000,-7.7897405,110.3645237,Yogyakarta,,Yogyakarta,Modern,,,Buka ⋅ Tutup pukul 21.00,cafe  malioboro,2025-08-28T11:23:19.935965,extract_from_url,0.9
Selonjor Coffee Lor Malioboro,"Kafe · Jl. P. Mangkubumi No.51, RW.001",0.0,0,Rp 1–50.000,-7.7863923,110.3664651,Yogyakarta,,Yogyakarta,Coffee Shop,,,Buka ⋅ Tutup pukul 00.00,cafe  malioboro,2025-08-28T11:23:20.021781,extract_from_url,0.9
Nyore Coffee & Space,Kafe · Jl. Margo Utomo No.79,0.0,0,Rp 25–50 rb,-7.7852247,110.3665953,Yogyakarta,,Yogyakarta,Coffee Shop,,,Buka ⋅ Tutup pukul 00.00,cafe best malioboro,2025-08-28T11:23:41.742040,extract_from_url,0.9
Blanco Coffee and Books,Kedai Kopi ·  · Jl. Kranggan No.30,0.0,0,Rp 25–50 rb,-7.7813975,110.3648099,Yogyakarta,,Yogyakarta,Coffee Shop,,,Buka ⋅ Tutup pukul 00.00,cafe best malioboro,2025-08-28T11:23:41.841532,extract_from_url,0.9
BelajaR Ngopi Yogyakarta,"Kedai Kopi · Jl. Hayam Wuruk No.14, RW.001",0.0,0,,-7.795797,110.3727691,Yogyakarta,,Yogyakarta,Modern,,,Buka ⋅ Tutup pukul 22.00,cafe buat nugas malioboro,2025-08-28T11:24:05.168423,extract_from_url,0.9
Noren Coffee & Roastery,Kedai Kopi · Jl. Sosrokusuman No.178-109,0.0,0,Rp 1–25.000,-7.7938604,110.3666938,Yogyakarta,,Yogyakarta,Roastery,,,Buka ⋅ Tutup pukul 23.30,cafe buat nugas malioboro,2025-08-28T11:24:05.373254,extract_from_url,0.9
Civet Coffee Malioboro,Kedai Kopi · Jl. Ps. Kembang No.35,0.0,0,Rp 1–25.000,-7.7900113,110.3640733,Yogyakarta,,Yogyakarta,Coffee Shop,,,Buka ⋅ Tutup pukul 23.30,cafe cozy malioboro,2025-08-28T11:24:47.594932,extract_from_url,0.9
C28 Social Space - Malioboro,Kedai Kopi · Jl. Kemetiran Lor No.6,0.0,0,Rp 25–50 rb,-7.7913378,110.3613557,Yogyakarta,,Yogyakarta,Modern,,,Buka 24 jam,cafe cozy malioboro,2025-08-28T11:24:47.859158,extract_from_url,0.9
Podomoro coffee,Kafe · Jl. Malioboro No.32,0.0,0,,-7.7939933,110.3658194,Yogyakarta,,Yogyakarta,Coffee Shop,,,Tutup ⋅ Buka pukul 20.00,cafe cozy malioboro,2025-08-28T11:24:48.106794,extract_from_url,0.9
ANDORRA,"Kafe ·  · PYRENEES Yogyakarta, Jl. Sosrowijayan No.1 lantai 1",0.0,0,Rp 25–50 rb,-7.791829,110.365605,Yogyakarta,,Yogyakarta,Modern,,,Buka ⋅ Tutup pukul 22.00,cafe hits malioboro,2025-08-28T11:25:08.212553,extract_from_url,0.9
Tumbas Mimik Milkshake and Coffee(ꦠꦸꦩ꧀ꦧꦱ꧀ꦩꦶꦩꦶꦏ꧀),,0.0,0,$,-7.7931698,110.3675152,Yogyakarta,,Yogyakarta,Coffee Shop,,,Tutup ⋅ Buka pukul 17.00,cafe instagrammable malioboro,2025-08-28T11:25:32.365375,extract_from_url,0.9
Exit Roofbar,"Kafe · Grage Ramayana Hotel, Jl. Sosrowijayan No.33 Lt. 5",0.0,0,,-7.7923073,110.3639489,Yogyakarta,,Yogyakarta,Modern,,,Tutup ⋅ Buka pukul 17.00,cafe instagrammable malioboro,2025-08-28T11:25:32.532910,extract_from_url,0.9
Rodjo Coffee & Bakery,Kafe · Jl. Malioboro No.87,0.0,0,,-7.7936303,110.3656346,Yogyakarta,,Yogyakarta,Coffee Shop,,,Buka ⋅ Tutup pukul 23.00,cafe late night malioboro,2025-08-28T11:25:52.481433,extract_from_url,0.9
Lucifer,Kafe ·  · Jl. Sosrowijayan No.71,0.0,0,$$,-7.7916431,110.361824,Yogyakarta,,Yogyakarta,Modern,,,Tutup ⋅ Buka pukul 17.00,cafe live music malioboro,2025-08-28T11:26:15.963211,extract_from_url,0.9
10/10 Pool Bar Rooftop,"Bar ·  · 10th floor of Novotel Suites, Jl. Malioboro No.52 58",0.0,0,,-7.7931709,110.3665629,Yogyakarta,,Yogyakarta,Modern,,,Buka ⋅ Tutup pukul 00.00,cafe live music malioboro,2025-08-28T11:26:16.151503,extract_from_url,0.9
KOPI JOSS MBAK SISKA Slasar Malioboro,Jawa · Jl. Malioboro,0.0,0,Rp 1–25.000,-7.789792,110.3649046,Yogyakarta,,Yogyakarta,Modern,,,Tutup ⋅ Buka pukul 16.00,cafe murah malioboro,2025-08-28T11:26:39.173991,extract_from_url,0.9
Sunset Coffee & Eatery,Kedai Kopi · Jl. Nologaten,0.0,0,Rp 25–50 rb,-7.7739888,110.4011155,Sleman,,Sleman,Coffee Shop,,,Buka ⋅ Tutup pukul 00.30,cafe sunset spot malioboro,2025-08-28T11:27:43.521892,extract_from_url,0.9
LOKIO Coffee & Eatery - Mangkubumi,Kedai Kopi · Jl. Margo Utomo No.21,0.0,0,Rp 25–50 rb,-7.7875364,110.3663697,Yogyakarta,,Yogyakarta,Coffee Shop,,,Buka ⋅ Tutup pukul 22.00,cafe sunset spot malioboro,2025-08-28T11:27:43.709123,extract_from_url,0.9
Sunset Del Coffee,Restoran · Jl. Dlingo-Patuk,0.0,0,Rp 25–50 rb,-7.8536229,110.474386,Gunung Kidul,,Gunung Kidul,Coffee Shop,,,Tutup ⋅ Buka pukul 16.00,cafe sunset spot malioboro,2025-08-28T11:27:43.787080,extract_from_url,0.9
Cafe Oyot Godhong,,0.0,0,,-7.7991206,110.3651114,Yogyakarta,,Yogyakarta,Modern,,,Buka ⋅ Tutup pukul 17.00,cafe sunset spot malioboro,2025-08-28T11:27:44.004618,extract_from_url,0.9
Starbucks Coffee Malioboro,Kedai Kopi · Jl. Malioboro No.41,0.0,0,Rp 50–75 rb,-7.7949259,110.3654214,Yogyakarta,,Yogyakarta,Coffee Shop,,,Buka ⋅ Tutup pukul 22.00,cafe terdekat malioboro,2025-08-28T11:28:07.816865,extract_from_url,0.9
Coffee Corner Tour and Travel,"Biro Wisata · 6957+FQP, Jl. Sosrowijayan",0.0,0,,-7.7912856,110.3644652,Yogyakarta,,Yogyakarta,Coffee Shop,,,Buka ⋅ Tutup pukul 21.00,coffee corner  malioboro,2025-08-28T11:28:48.841398,extract_from_url,0.9
"""KOPIKU"" Coffee Corner",Kedai Kopi · Jl. Kesatriyan No.41,0.0,0,,-7.8091415,110.3644909,Yogyakarta,,Yogyakarta,Coffee Shop,,,Buka ⋅ Tutup pukul 23.00,coffee corner  malioboro,2025-08-28T11:28:49.107144,extract_from_url,0.9
Carani Coffee & Eatery,Kedai Kopi · Jl. Wijaya Kusuma,0.0,0,Rp 25–50 rb,-7.7527783,110.4090282,Sleman,,Sleman,Coffee Shop,,,Tutup ⋅ Buka pukul 16.00,coffee corner cozy malioboro,2025-08-28T11:30:18.123076,extract_from_url,0.9
TOMORO COFFEE - Malioboro,Kedai Kopi · Jl. Malioboro No.123,0.0,0,Rp 25–50 rb,-7.7926525,110.3657036,Yogyakarta,,Yogyakarta,Coffee Shop,,,Buka ⋅ Tutup pukul 00.00,coffee corner late night malioboro,2025-08-28T11:31:28.046311,extract_from_url,0.9
Anky Music,Jl. Abu Bakar Ali No.4,0.0,0,,-7.7890198,110.3706855,Yogyakarta,,Yogyakarta,Modern,,,,coffee corner live music malioboro,2025-08-28T11:31:50.078220,extract_from_url,0.9
Point Cafe Malioboro,Kedai Kopi · Jl. Malioboro No.179,0.0,0,Rp 1–25.000,-7.7914672,110.3658789,Yogyakarta,,Yogyakarta,Modern,,,,coffee corner sunset spot malioboro,2025-08-28T11:33:19.844134,extract_from_url,0.9
Hidjau Coffee & Mart,Kafe · Jl. KH. Ahmad Dahlan No.132,0.0,0,Rp 25–50 rb,-7.8009776,110.3567648,,,Yogyakarta,Coffee Shop,,,Buka ⋅ Tutup pukul 23.00,coffee house buat nugas malioboro,2025-08-28T11:35:07.242744,extract_from_url,0.9
Silol Kopi & Eatery,Kafe · Jl. Suroto,0.0,0,Rp 25–50 rb,-7.7845616,110.3744526,Yogyakarta,,Yogyakarta,Modern,,,Buka 24 jam,coffee house buka 24 jam malioboro,2025-08-28T11:35:26.939615,extract_from_url,0.9
Legend Coffee,Kafe ·  · Jl. Abu Bakar Ali No.24-26,0.0,0,Rp 25–50 rb,-7.7881602,110.372794,Yogyakarta,,Yogyakarta,Coffee Shop,,,Buka ⋅ Tutup pukul 01.00,coffee house buka 24 jam malioboro,2025-08-28T11:35:26.945161,extract_from_url,0.9
Dummin Coffee & Space UKDW,"Kedai Kopi · Jl. Dr. Wahidin Sudirohusodo No.34, RT.14/RW.04",0.0,0,Rp 25–50 rb,-7.7862167,110.3788211,Yogyakarta,,Yogyakarta,Coffee Shop,,,Buka 24 jam,coffee house buka 24 jam malioboro,2025-08-28T11:35:27.195934,extract_from_url,0.9
Ada Coffee,Kafe · Jl. Cokrodipuran No.20,0.0,0,Rp 25–50 rb,-7.7967792,110.3637367,Yogyakarta,,Yogyakarta,Coffee Shop,,,Buka ⋅ Tutup pukul 03.00,coffee house buka 24 jam malioboro,2025-08-28T11:35:27.278845,extract_from_url,0.9
Waroeng Kopi,"Kedai Kopi ·  · 6948+C3J, Jl. Dagen",0.0,0,,-7.7939153,110.3651413,Yogyakarta,,Yogyakarta,Modern,,,Buka ⋅ Tutup pukul 00.00,coffee house murah malioboro,2025-08-28T11:37:33.399756,extract_from_url,0.9
Kopi Kenangan - Ramai Malioboro,"Kedai Kopi ·  · Ramai Malioboro, Jl. Jend. Ahmad Yani No.73 Lt.G",0.0,0,Rp 25–50 rb,-7.7972032,110.3651212,Yogyakarta,,Yogyakarta,Modern,,,Buka 24 jam,coffee house paling rame malioboro,2025-08-28T11:37:54.051535,extract_from_url,0.9
Kopi Jos Mbah Darmo,"Kedai Kopi · Selasar, Jl. Malioboro",0.0,0,Rp 1–25.000,-7.7897358,110.3651691,Yogyakarta,,Yogyakarta,Modern,,,Tutup ⋅ Buka pukul 17.00,coffee shop murah malioboro,2025-08-28T11:42:54.525163,extract_from_url,0.9
Onix Coffee,Bar Kopi Espresso · Jl. Dagen No.81,0.0,0,,-7.7937932,110.3623968,Yogyakarta,,Yogyakarta,Coffee Shop,,,Tutup ⋅ Buka pukul 14.00,espresso bar  malioboro,2025-08-28T11:45:03.283675,extract_from_url,0.9
Space Roastery ONE,Kedai Kopi ·  · Jl. P. Mangkubumi No.77,0.0,0,Rp 25–50 rb,-7.7852672,110.3665413,Yogyakarta,,Yogyakarta,Roastery,,,Buka 24 jam,espresso bar  malioboro,2025-08-28T11:45:03.608421,extract_from_url,0.9
Kopi kampung tengah kota,Kedai Kopi · Jl. Sosrokusuman,0.0,0,,-7.7940259,110.3662779,Yogyakarta,,Yogyakarta,Modern,,,Buka ⋅ Tutup pukul 17.00,espresso bar buka 24 jam malioboro,2025-08-28T11:46:05.640398,extract_from_url,0.9
Singgahku Coffee & Eatery,Lounge ·  · Jl. Ps. Kembang No.49,0.0,0,Rp 25–50 rb,-7.7902614,110.3631676,Yogyakarta,,Yogyakarta,Coffee Shop,,,Buka 24 jam,espresso bar cozy malioboro,2025-08-28T11:46:28.372498,extract_from_url,0.9
Sekoci Coffee.Bar,Bar Kopi Espresso · Jl. Parangtritis No.75,0.0,0,Rp 1–25.000,-7.818828,110.3681893,Yogyakarta,,Yogyakarta,Coffee Shop,,,Buka ⋅ Tutup pukul 02.00,espresso bar cozy malioboro,2025-08-28T11:46:28.374478,extract_from_url,0.9
Ono Roso Malioboro,Kedai Kopi · Jl. Kemetiran Kidul No.18c,0.0,0,Rp 25–50 rb,-7.7932321,110.360015,Yogyakarta,,Yogyakarta,Modern,,,Buka ⋅ Tutup pukul 23.00,espresso bar instagrammable malioboro,2025-08-28T11:47:10.401740,extract_from_url,0.9
Ibar Malioboro,Bar · Jl. Kp. Jl. Sosrokusuman No.18,0.0,0,Rp 100–125 rb,-7.7928594,110.3663054,Yogyakarta,,Yogyakarta,Modern,,,Buka 24 jam,espresso bar late night malioboro,2025-08-28T11:47:33.545385,extract_from_url,0.9
Asmara Art and Coffee Shop,Bar Dengan Pentas Musik ·  · Jl. Tirtodipuran No.22,0.0,0,$$,-7.8184945,110.3643875,Yogyakarta,,Yogyakarta,Coffee Shop,,,Tutup ⋅ Buka pukul 17.00,espresso bar live music malioboro,2025-08-28T11:47:54.931136,extract_from_url,0.9
SUNSET ALKID (SUNSET COFFE & EATERY ALUN ALUN KIDUL),Stan Kopi · Jl. Alun Alun Kidul,0.0,0,Rp 1–25.000,-7.8112828,110.3636926,Yogyakarta,,Yogyakarta,Modern,,,Tutup ⋅ Buka pukul 15.00,espresso bar sunset spot malioboro,2025-08-28T11:49:21.277362,extract_from_url,0.9
Riss Coffee,Kedai Kopi ·  · Jl. Gowongan Kidul No.33-49,0.0,0,Rp 25–50 rb,-7.7879114,110.3644384,Yogyakarta,,Yogyakarta,Coffee Shop,,,Buka ⋅ Tutup pukul 22.00,espresso bar sunset spot malioboro,2025-08-28T11:49:21.678320,extract_from_url,0.9
